,City,Cloudiness,Country,Date,Humidity,Lat,Lng,Max Temp,Wind Speed
0,mandalgovi,53.0,MN,1585610290.0,61.0,45.76,106.27,20.84,9.82
1,hilo,90.0,US,1585610247.0,73.0,19.73,-155.09,75.2,12.75
2,nanortalik,100.0,GL,1585610291.0,93.0,60.14,-45.24,33.03,10.04
3,tsihombe,,,,,,,,
4,cabo san lucas,75.0,MX,1585610000.0,26.0,22.89,-109.91,82.4,6.93
5,xianshuigu,94.0,CN,1585610291.0,61.0,38.98,117.38,50.0,6.71
6,flin flon,90.0,CA,1585610046.0,59.0,54.77,-101.86,35.6,4.7
7,cagayan de tawi-tawi,,,,,,,,
8,grand river south east,,,,,,,,
9,zilair,14.0,RU,1585610291.0,89.0,52.23,57.44,27.27,5.44
10,boa vista,75.0,BR,1585610291.0,49.0,2.82,-60.67,89.6,9.17
11,bluff,0.0,NZ,1585610292.0,74.0,-46.6,168.33,63.0,3.0
12,petropavlovka,0.0,RU,1585610292.0,74.0,50.61,105.32,26.24,4.72
13,jember,67.0,ID,1585610292.0,72.0,-8.17,113.7,80.58,0.85
14,punta arenas,40.0,CL,1585610224.0,62.0,-53.15,-70.92,51.8,23.04
15,kapaa,75.0,US,1585610292.0,74.0,22.08,-159.32,78.8,13.87
16,amderma,,,,,,,,
17,hermanus,97.0,ZA,1585610258.0,84.0,-34.42,19.23,59.0,8.34
18,codrington,28.0,AU,1585610292.0,68.0,-38.27,141.97,62.78,11.54
19,thompson,90.0,CA,1585610292.0,46.0,55.74,-97.86,28.4,9.17
20,oktyabrskiy,100.0,RU,1585610293.0,86.0,54.48,53.47,33.26,5.75
21,taolanaro,,,,,,,,
22,burns lake,100.0,CA,1585610105.0,85.0,54.23,-125.75,15.48,7.65
23,rikitea,4.0,PF,1585610293.0,77.0,-23.12,-134.97,78.44,7.0
24,takoradi,74.0,GH,1585610293.0,89.0,4.88,-1.76,80.26,8.77
25,cedar city,20.0,US,1585610285.0,24.0,37.68,-113.06,57.2,9.8
26,bredasdorp,42.0,ZA,1585610088.0,81.0,-34.53,20.04,53.6,4.7
27,jamestown,90.0,US,1585610202.0,93.0,42.1,-79.24,41.0,13.87
28,hambantota,80.0,LK,1585610293.0,81.0,6.12,81.12,78.94,6.89
29,ushuaia,40.0,AR,1585610294.0,57.0,-54.8,-68.3,51.8,11.41
30,mataura,0.0,NZ,1585610294.0,74.0,-46.19,168.86,63.0,3.0
31,barrow,1.0,US,1585610294.0,71.0,71.29,-156.79,3.2,10.29
32,saint-francois,0.0,FR,1585610294.0,82.0,46.42,3.91,37.99,3.36
33,hualmay,94.0,PE,1585610294.0,76.0,-11.1,-77.61,72.88,5.23
34,san cristobal,20.0,VE,1585610294.0,48.0,7.77,-72.22,87.8,11.41
35,bambanglipuro,81.0,ID,1585610294.0,79.0,-7.95,110.28,80.33,0.76
36,kaitangata,35.0,NZ,1585610272.0,86.0,-46.28,169.85,57.99,1.99
37,tateyama,75.0,JP,1585610294.0,76.0,34.98,139.87,52.0,14.99
38,fortuna,90.0,US,1585610295.0,87.0,40.6,-124.16,55.4,6.93
39,illoqqortoormiut,,,,,,,,
40,scalea,100.0,IT,1585610295.0,62.0,39.81,15.8,50.0,0.6
41,rawson,0.0,AR,1585610295.0,57.0,-43.3,-65.1,59.56,10.13
42,hendijan,,,,,,,,
43,ola,70.0,RU,1585610295.0,92.0,59.58,151.28,17.58,6.67
44,melbu,100.0,NO,1585610295.0,91.0,68.5,14.83,33.01,14.0
45,arraial do cabo,75.0,BR,1585610265.0,88.0,-22.97,-42.03,77.0,3.36
46,nabul,,,,,,,,
47,namatanai,65.0,PG,1585610296.0,70.0,-3.67,152.43,83.97,6.17
48,kupang,20.0,ID,1585610296.0,100.0,-10.17,123.58,75.2,2.24
49,te anau,23.0,NZ,1585610296.0,49.0,-45.42,167.72,60.21,1.68
50,port elizabeth,1.0,ZA,1585610104.0,93.0,-33.92,25.57,64.4,12.75
51,ust-kamchatsk,,,,,,,,
52,baykit,100.0,RU,1585610071.0,93.0,61.67,96.37,30.92,7.65
53,half moon bay,1.0,US,1585610296.0,71.0,37.46,-122.43,68.0,9.17
54,sao joao da barra,65.0,BR,1585610297.0,82.0,-21.64,-41.05,76.86,5.21
55,mahibadhoo,11.0,MV,1585610297.0,64.0,3.78,72.97,83.01,5.19
56,cape town,20.0,ZA,1585610297.0,77.0,-33.93,18.42,63.0,12.75
57,geraldton,6.0,AU,1585610297.0,82.0,-28.77,114.6,57.2,8.05
58,west lorne,90.0,CA,1585610297.0,81.0,42.6,-81.6,43.0,9.17
59,chuy,53.0,UY,1585610297.0,92.0,-33.7,-53.46,70.16,9.53
60,kavieng,92.0,PG,1585610297.0,73.0,-2.57,150.8,82.94,2.73
61,bandiagara,7.0,ML,1585610297.0,14.0,14.35,-3.61,86.23,15.48
62,dikson,82.0,RU,1585610297.0,91.0,73.51,80.55,-11.16,4.05
63,sioux lookout,75.0,CA,1585610293.0,23.0,50.1,-91.92,50.0,2.24
64,kazalinsk,,,,,,,,
65,khatanga,100.0,RU,1585610298.0,90.0,71.97,102.5,-6.47,9.28
66,saint anthony,1.0,US,1585610298.0,22.0,45.02,-93.22,60.01,8.05
67,torbay,90.0,CA,1585610298.0,100.0,47.67,-52.73,32.0,19.46
68,mayumba,99.0,GA,1585610299.0,89.0,-3.43,10.66,80.11,4.12
69,inowroclaw,90.0,PL,1585610299.0,96.0,52.8,18.26,33.01,4.7
70,narsaq,100.0,GL,1585610299.0,90.0,60.92,-46.05,32.0,1.7
71,longyearbyen,75.0,SJ,1585610299.0,64.0,78.22,15.64,-4.0,11.41
72,nguiu,,,,,,,,
73,esso,91.0,RU,1585610299.0,85.0,55.93,158.7,23.58,18.97
74,nizhneyansk,,,,,,,,
75,paamiut,17.0,GL,1585610225.0,94.0,61.99,-49.67,21.6,8.88
76,waipawa,95.0,NZ,1585610299.0,93.0,-41.41,175.52,64.99,12.75
77,berlevag,40.0,NO,1585610300.0,78.0,70.86,29.09,15.8,11.41
78,qaqortoq,100.0,GL,1585610300.0,91.0,60.72,-46.03,32.0,5.37
79,albany,90.0,US,1585610049.0,75.0,42.6,-73.97,46.4,4.7
80,rio grande,4.0,BR,1585610246.0,74.0,-32.03,-52.1,78.8,4.7
81,wolfhagen,98.0,DE,1585610300.0,87.0,51.33,9.17,39.99,1.12
82,murmashi,15.0,RU,1585610300.0,85.0,68.82,32.81,12.2,2.24
83,hithadhoo,52.0,MV,1585610289.0,66.0,-0.6,73.08,83.23,9.69
84,bengkulu,91.0,ID,1585610300.0,80.0,-3.8,102.27,77.49,5.03
85,hede,91.0,CN,1585610300.0,75.0,33.77,120.25,49.23,2.46
86,arlit,9.0,NE,1585610301.0,15.0,18.74,7.39,85.05,11.25
87,bereda,65.0,ES,1585610301.0,70.0,43.27,-7.54,48.0,9.17
88,broome,90.0,US,1585610301.0,81.0,42.25,-75.83,46.99,6.93
89,yellowknife,20.0,CA,1585610110.0,42.0,62.46,-114.35,6.8,9.17
90,sitka,75.0,US,1585610301.0,38.0,57.05,-135.33,39.2,10.29
91,bartlesville,90.0,US,1585610168.0,87.0,36.75,-95.98,54.0,11.41
92,san patricio,5.0,MX,1585610301.0,74.0,19.22,-104.7,86.0,11.41
93,boo,8.0,SE,1585610301.0,67.0,59.33,18.28,27.0,3.36
94,souillac,40.0,MU,1585610302.0,94.0,-20.52,57.52,80.6,4.7
95,georgetown,20.0,MY,1585610302.0,88.0,5.41,100.34,80.6,1.12
96,saleaula,,,,,,,,
97,saskylakh,72.0,RU,1585610302.0,88.0,71.92,114.08,-5.58,5.03
98,samusu,,,,,,,,
99,vaini,90.0,TO,1585610302.0,94.0,-21.2,-175.2,77.0,3.36
100,alindao,70.0,CF,1585610302.0,62.0,5.03,21.21,75.92,2.98
101,tiruttani,40.0,IN,1585610302.0,88.0,13.18,79.61,77.0,2.24
102,san quintin,100.0,MX,1585610011.0,64.0,30.48,-115.95,62.96,14.83
103,east london,34.0,ZA,1585610303.0,85.0,-33.02,27.91,70.72,7.85
104,dalvik,90.0,IS,1585610303.0,70.0,65.97,-18.53,42.8,42.5
105,scottsburgh,,,,,,,,
106,warrington,32.0,GB,1585610234.0,77.0,53.39,-2.58,43.0,5.82
107,panama city,20.0,PA,1585610161.0,58.0,8.99,-79.52,87.8,14.99
108,talnakh,97.0,RU,1585610303.0,76.0,69.49,88.4,-11.2,6.71
109,mahebourg,40.0,MU,1585610303.0,94.0,-20.41,57.7,80.6,4.7
110,palabuhanratu,,,,,,,,
111,ancud,0.0,CL,1585610304.0,55.0,-41.87,-73.82,60.8,4.7
112,busselton,53.0,AU,1585610061.0,67.0,-33.65,115.33,50.0,2.86
113,magadan,64.0,RU,1585610304.0,92.0,59.57,150.8,17.71,8.23
114,kodiak,1.0,US,1585610274.0,23.0,57.79,-152.41,37.4,14.99
115,avarua,40.0,CK,1585610304.0,74.0,-21.21,-159.78,86.0,11.41
116,saint-pierre,32.0,RE,1585610273.0,94.0,-21.34,55.48,77.0,4.7
117,vila franca do campo,40.0,PT,1585610304.0,67.0,37.72,-25.43,59.0,11.41
118,aksu,94.0,CN,1585610304.0,32.0,41.12,80.26,48.63,10.27
119,dauphin,1.0,CA,1585610304.0,47.0,51.15,-100.05,57.2,19.46
120,hamilton,20.0,US,1585610105.0,41.0,39.18,-84.53,60.01,14.99
121,esperance,23.0,AU,1585610267.0,93.0,-33.87,121.9,51.8,4.7
122,new norfolk,20.0,AU,1585610121.0,62.0,-42.78,147.06,60.01,8.05
123,ilulissat,100.0,GL,1585610305.0,68.0,69.22,-51.1,24.8,18.34
124,lebu,0.0,CL,1585610233.0,69.0,-37.62,-73.65,57.33,16.82
125,asuncion,20.0,PY,1585610305.0,55.0,-25.3,-57.64,91.4,4.7
126,yumen,65.0,CN,1585610305.0,37.0,40.28,97.2,34.09,14.7
127,kavaratti,73.0,IN,1585610280.0,70.0,10.57,72.64,83.62,8.72
128,tuktoyaktuk,75.0,CA,1585610305.0,64.0,69.45,-133.04,-4.0,13.87
129,nenjiang,67.0,CN,1585610305.0,69.0,49.18,125.22,36.19,11.72
130,yar-sale,1.0,RU,1585610306.0,94.0,66.83,70.83,8.31,11.21
131,lyndon,1.0,US,1585610306.0,27.0,38.26,-85.6,63.0,4.7
132,manzanillo,17.0,CU,1585610306.0,69.0,20.34,-77.12,78.75,6.02
133,port alfred,14.0,ZA,1585610306.0,96.0,-33.59,26.89,64.0,5.46
134,caxito,99.0,AO,1585610306.0,88.0,-8.58,13.66,77.72,4.36
135,mbaiki,95.0,CF,1585610306.0,67.0,3.87,17.99,74.8,1.77
136,tual,92.0,ID,1585610306.0,72.0,-5.67,132.75,84.6,7.38
137,atuona,6.0,PF,1585610306.0,76.0,-9.8,-139.03,82.49,15.1
138,college,40.0,US,1585610307.0,32.0,64.86,-147.8,26.01,13.87
139,kruisfontein,4.0,ZA,1585610307.0,82.0,-34.0,24.73,59.45,1.52
140,flinders,40.0,AU,1585610307.0,77.0,-34.58,150.86,73.0,8.05
141,puerto ayora,20.0,EC,1585610307.0,74.0,-0.74,-90.35,82.4,9.17
142,aklavik,20.0,CA,1585610307.0,41.0,68.22,-135.01,3.2,11.41
143,jablah,75.0,SY,1585610307.0,58.0,35.36,35.93,57.2,4.7
144,castro,1.0,BR,1585610247.0,68.0,-24.79,-50.01,64.63,4.74
145,tukrah,54.0,LY,1585610307.0,78.0,32.53,20.58,57.92,22.32
146,brighton,40.0,GB,1585610192.0,70.0,50.83,-0.14,43.0,12.75
147,nikolskoye,12.0,RU,1585610308.0,73.0,59.7,30.79,27.0,4.47
148,puerto baquerizo moreno,20.0,EC,1585610308.0,74.0,-0.9,-89.6,84.2,8.05
149,diffa,77.0,NE,1585610308.0,19.0,13.32,12.61,83.66,2.77
150,norman wells,5.0,CA,1585610305.0,45.0,65.28,-126.83,3.2,13.87
151,hwange,22.0,ZW,1585610308.0,68.0,-18.37,26.5,67.24,1.88
152,necochea,100.0,AR,1585610217.0,92.0,-38.55,-58.74,61.0,5.01
153,katsuura,75.0,JP,1585610308.0,71.0,35.13,140.3,50.0,11.41
154,orumiyeh,20.0,IR,1585610308.0,52.0,37.55,45.08,42.8,4.7
155,lola,32.0,GN,1585610308.0,68.0,7.8,-8.53,73.56,3.0
156,namie,75.0,JP,1585610309.0,65.0,37.48,141.0,46.99,1.12
157,hovd,0.0,MN,1585610309.0,57.0,48.01,91.64,19.2,2.98
158,nyuksenitsa,100.0,RU,1585610309.0,92.0,60.41,44.24,22.91,6.26
159,saint-philippe,47.0,RE,1585610309.0,94.0,-21.36,55.77,77.0,4.7
160,leningradskiy,27.0,RU,1585610309.0,90.0,69.38,178.42,16.02,8.99
161,cidreira,0.0,BR,1585610259.0,90.0,-30.18,-50.21,73.45,6.38
162,muroto,75.0,JP,1585610309.0,82.0,33.28,134.15,57.2,6.93
163,provideniya,90.0,RU,1585610309.0,85.0,64.38,-173.3,19.4,24.61
164,hasaki,75.0,JP,1585610309.0,71.0,35.73,140.83,50.0,11.41
165,port lincoln,23.0,AU,1585610310.0,65.0,-34.73,135.87,64.36,3.51
166,sabha,0.0,LY,1585610131.0,24.0,27.04,14.43,64.51,10.27
167,muhos,0.0,FI,1585610211.0,73.0,64.81,25.99,23.0,5.82
168,vilyuysk,89.0,RU,1585610310.0,95.0,63.76,121.62,14.97,6.91
169,rudnogorsk,99.0,RU,1585610310.0,86.0,57.26,103.75,29.88,13.96
170,port hedland,0.0,AU,1585610310.0,100.0,-20.32,118.57,77.0,4.7
171,lompoc,1.0,US,1585610310.0,63.0,34.64,-120.46,71.01,14.99
172,eirunepe,91.0,BR,1585610310.0,92.0,-6.66,-69.87,75.0,2.3
173,kuminskiy,82.0,RU,1585610311.0,93.0,58.67,66.57,34.74,7.94
174,pong,0.0,TH,1585610311.0,32.0,19.15,100.28,76.51,2.21
175,poum,74.0,NC,1585610311.0,74.0,-20.23,164.02,78.12,15.99
176,kutum,8.0,SD,1585610311.0,16.0,14.2,24.67,67.51,5.88
177,taltal,68.0,CL,1585610311.0,64.0,-25.4,-70.48,67.46,3.24
178,sinnamary,99.0,GF,1585610253.0,84.0,5.38,-52.95,79.03,13.11
179,garissa,50.0,KE,1585610311.0,72.0,-0.45,39.64,80.87,9.75
180,guerrero negro,85.0,MX,1585610311.0,32.0,27.98,-114.06,73.89,11.77
181,husavik,90.0,IS,1585610311.0,70.0,66.04,-17.34,42.8,42.5
182,hobart,20.0,AU,1585610251.0,62.0,-42.88,147.33,59.0,8.05
183,barbar,,,,,,,,
184,viligili,,,,,,,,
185,batemans bay,76.0,AU,1585610312.0,78.0,-35.72,150.18,70.0,4.97
186,qaanaaq,72.0,GL,1585610312.0,69.0,77.48,-69.36,-1.82,4.12
187,beyneu,100.0,KZ,1585610312.0,73.0,45.32,55.2,49.37,9.75
188,vao,73.0,NC,1585610312.0,72.0,-22.67,167.48,73.58,19.15
189,zeya,40.0,RU,1585610312.0,89.0,53.75,127.27,26.74,2.77
190,duz,,,,,,,,
191,jizan,17.0,SA,1585610313.0,78.0,17.33,42.67,80.6,2.53
192,davila,20.0,PH,1585610313.0,94.0,18.47,120.58,77.0,2.24
193,concepcion,0.0,CL,1585610290.0,59.0,-36.83,-73.05,66.2,13.87
194,cherskiy,100.0,RU,1585610313.0,91.0,68.75,161.3,1.76,13.89
195,katiola,36.0,CI,1585610313.0,70.0,8.13,-5.1,84.2,4.7
196,mecca,13.0,SA,1585610077.0,40.0,21.43,39.83,72.61,3.15
197,upernavik,100.0,GL,1585610283.0,97.0,72.79,-56.15,16.97,9.69
198,kvitok,98.0,RU,1585610313.0,81.0,56.07,98.48,33.06,14.18
199,oranjemund,17.0,NA,1585610313.0,90.0,-28.55,16.43,59.72,5.01
200,lolua,,,,,,,,
201,nikolo-pavlovskoye,93.0,RU,1585610314.0,82.0,57.78,60.06,33.21,5.73
202,airai,96.0,TL,1585610314.0,54.0,-8.93,125.41,67.42,2.46
203,ribeira grande,43.0,PT,1585610314.0,76.0,38.52,-28.7,59.16,19.17
204,quatre cocos,40.0,MU,1585610314.0,94.0,-20.21,57.76,80.6,4.7
205,namwala,89.0,ZM,1585610314.0,72.0,-15.75,26.44,63.79,2.98
206,carnarvon,46.0,AU,1585610314.0,63.0,-24.87,113.63,66.2,19.46
207,liverpool,71.0,GB,1585610258.0,80.0,53.41,-2.98,43.0,5.82
208,mirnyy,75.0,RU,1585610314.0,79.0,62.54,113.96,24.8,20.13
209,tigil,99.0,RU,1585610315.0,92.0,57.8,158.67,27.41,19.33
210,kerrobert,75.0,CA,1585610315.0,79.0,51.92,-109.13,28.4,9.17
211,san andres,20.0,CO,1585610315.0,66.0,12.58,-81.7,86.0,12.75
212,lodwar,58.0,KE,1585610315.0,43.0,3.12,35.6,86.4,14.76
213,tommot,100.0,RU,1585610315.0,91.0,58.96,126.29,23.23,10.27
214,acapulco,5.0,MX,1585610187.0,66.0,16.86,-99.89,86.0,10.29
215,mar del plata,90.0,AR,1585610315.0,93.0,-38.0,-57.56,64.0,8.05
216,alta floresta,97.0,BR,1585610315.0,85.0,-9.88,-56.09,74.59,3.36
217,otradnoye,17.0,RU,1585610315.0,73.0,59.78,30.82,27.0,4.47
218,plover,1.0,US,1585610316.0,45.0,44.46,-89.54,53.6,8.05
219,nikolayevsk-na-amure,99.0,RU,1585610316.0,87.0,53.14,140.73,34.93,3.4
220,mount isa,12.0,AU,1585610316.0,39.0,-20.73,139.5,82.4,4.7
221,eureka,90.0,US,1585610095.0,87.0,40.8,-124.16,55.4,6.93
222,tasiilaq,100.0,GL,1585610316.0,100.0,65.61,-37.64,30.2,5.37
223,sampit,56.0,ID,1585610316.0,94.0,-2.53,112.95,77.65,1.39
224,butaritari,1.0,KI,1585610316.0,78.0,3.07,172.79,83.61,15.64
225,belushya guba,,,,,,,,
226,lagoa,28.0,PT,1585610316.0,77.0,39.05,-27.98,58.48,27.4
227,kurumkan,84.0,RU,1585610317.0,88.0,54.3,110.3,24.57,6.96
228,hay river,40.0,CA,1585610317.0,64.0,60.82,-115.8,-2.2,10.29
229,gazojak,100.0,TM,1585610317.0,81.0,41.19,61.4,58.46,10.04
230,northam,24.0,GB,1585610317.0,81.0,51.03,-4.22,46.0,8.05
231,sa kaeo,38.0,TH,1585610317.0,77.0,13.81,102.07,80.71,3.0
232,clarence town,40.0,AU,1585610317.0,78.0,-32.58,151.78,77.0,13.87
233,tromso,75.0,NO,1585610317.0,54.0,69.65,18.96,30.2,63.31
234,kudahuvadhoo,38.0,MV,1585610317.0,69.0,2.67,72.89,82.94,8.05
235,pitimbu,20.0,BR,1585610318.0,94.0,-7.47,-34.81,78.8,4.7
236,moyo,29.0,UG,1585610318.0,64.0,3.66,31.72,69.55,2.55
237,dakar,17.0,SN,1585610318.0,88.0,14.69,-17.44,73.4,9.17
238,sorland,100.0,NO,1585610318.0,92.0,67.67,12.69,38.86,36.69
239,atlantic beach,75.0,US,1585610318.0,73.0,30.33,-81.4,84.2,8.05
240,dickinson,75.0,US,1585610318.0,73.0,29.46,-95.05,80.6,14.99
241,amapa,67.0,BR,1585610318.0,91.0,1.0,-52.0,75.13,2.75
242,fairbanks,20.0,US,1585610073.0,29.0,64.84,-147.72,25.0,12.75
243,bethel,75.0,US,1585610271.0,70.0,41.37,-73.41,48.99,5.82
244,barth,40.0,DE,1585610319.0,82.0,54.36,12.72,34.0,3.36
245,tuatapere,0.0,NZ,1585610319.0,74.0,-46.13,167.68,63.0,3.0
246,yenagoa,27.0,NG,1585610279.0,92.0,4.92,6.26,78.85,4.34
247,egvekinot,100.0,RU,1585610319.0,95.0,66.32,-179.17,20.07,13.56
248,meyungs,,,,,,,,
249,cabra,20.0,ES,1585610319.0,93.0,37.47,-4.44,53.6,3.36
250,vieux-habitants,75.0,GP,1585610319.0,73.0,16.06,-61.77,77.0,9.17
251,zyryanovskiy,,,,,,,,
252,blumberg,0.0,DE,1585610320.0,68.0,47.84,8.53,32.0,4.7
253,bonthe,16.0,SL,1585610320.0,82.0,7.53,-12.51,80.33,6.31
254,rodrigues alves,40.0,BR,1585610320.0,88.0,-7.74,-72.65,78.8,2.24
255,beloha,17.0,MG,1585610320.0,89.0,-25.17,45.05,69.66,8.1
256,namibe,81.0,AO,1585610320.0,76.0,-15.2,12.15,72.07,4.59
257,rio cuarto,92.0,AR,1585610084.0,61.0,-33.13,-64.35,77.0,6.93
258,conceicao da barra,3.0,BR,1585610039.0,85.0,-18.59,-39.73,77.22,9.62
259,karratha,0.0,AU,1585610257.0,31.0,-20.74,116.85,89.49,9.82
260,sorsk,33.0,RU,1585610320.0,82.0,54.0,90.25,22.24,4.18
261,cayenne,99.0,GF,1585610321.0,94.0,4.93,-52.33,77.0,7.85
262,clyde river,90.0,CA,1585610321.0,91.0,70.47,-68.59,-2.2,23.04
263,luderitz,0.0,NA,1585610321.0,87.0,-26.65,15.16,59.0,9.17
264,kaniama,89.0,CD,1585610321.0,73.0,-7.57,24.18,65.89,2.73
265,opochka,3.0,RU,1585610321.0,81.0,56.71,28.66,26.2,5.79
266,nouadhibou,44.0,MR,1585610321.0,68.0,20.93,-17.03,68.0,11.41
267,kuruman,100.0,ZA,1585610321.0,95.0,-27.45,23.43,62.01,6.26
268,glotovka,68.0,RU,1585610321.0,69.0,53.95,46.7,39.79,7.94
269,gayeri,90.0,BF,1585610321.0,12.0,12.65,0.49,86.04,6.51
270,havelock,1.0,US,1585610322.0,27.0,34.88,-76.9,75.2,9.17
271,karmana,,,,,,,,
272,tekeli,0.0,KZ,1585610322.0,38.0,44.83,78.82,35.35,7.38
273,talara,39.0,PE,1585610322.0,72.0,-4.58,-81.27,76.86,6.04
274,halalo,,,,,,,,
275,avera,1.0,US,1585610322.0,31.0,33.19,-82.53,77.0,5.82
276,krasnokamensk,0.0,RU,1585610322.0,64.0,50.1,118.04,29.01,12.33
277,pangnirtung,90.0,CA,1585610322.0,77.0,66.15,-65.71,1.4,23.04
278,camacha,20.0,PT,1585610322.0,72.0,33.08,-16.33,62.6,18.34
279,great yarmouth,31.0,GB,1585610323.0,70.0,52.61,1.73,43.0,11.41
280,havoysund,40.0,NO,1585610323.0,79.0,71.0,24.66,24.8,16.11
281,laguna,75.0,US,1585610323.0,52.0,38.42,-121.42,69.8,9.17
282,faanui,61.0,PF,1585610323.0,78.0,-16.48,-151.75,83.05,12.39
283,walvis bay,1.0,NA,1585610323.0,88.0,-22.96,14.51,61.0,1.01
284,chilon,5.0,MX,1585610323.0,39.0,17.23,-92.42,95.0,8.05
285,patrocinio,90.0,BR,1585610323.0,93.0,-18.94,-46.99,68.0,6.93
286,skjervoy,100.0,NO,1585610279.0,87.0,70.03,20.97,28.71,23.67
287,birjand,20.0,IR,1585610324.0,81.0,32.87,59.22,42.8,11.41
288,bumba,79.0,CD,1585610324.0,74.0,2.18,22.47,72.61,2.01
289,galgani,,,,,,,,
290,koboko,73.0,UG,1585610324.0,53.0,3.41,30.96,68.85,2.46
291,sao jose da coroa grande,100.0,BR,1585610324.0,82.0,-8.9,-35.15,80.46,7.85
292,xiongyue,78.0,CN,1585610324.0,55.0,40.18,122.12,47.82,11.81
293,jackson,90.0,US,1585610102.0,66.0,42.42,-122.83,53.6,6.93
294,marang,20.0,MY,1585610324.0,88.0,5.21,103.21,77.0,2.24
295,coquimbo,20.0,CL,1585610325.0,77.0,-29.95,-71.34,64.4,12.75
296,ostrovnoy,99.0,RU,1585610325.0,96.0,68.05,39.51,23.86,13.06
297,sentyabrskiy,,,,,,,,
298,bathsheba,75.0,BB,1585610325.0,69.0,13.22,-59.52,78.8,18.34
299,chokurdakh,99.0,RU,1585610252.0,91.0,70.63,147.92,-4.16,11.72
300,tutoia,100.0,BR,1585610325.0,84.0,-2.76,-42.27,79.88,8.93
301,papara,75.0,BR,1585610325.0,88.0,-3.98,-38.73,78.8,6.93
302,sur,17.0,OM,1585610325.0,79.0,22.57,59.53,76.53,9.37
303,serowe,43.0,BW,1585610325.0,36.0,-22.38,26.72,67.12,8.5
304,severo-kurilsk,75.0,RU,1585610326.0,92.0,50.68,156.12,33.1,12.46
305,denpasar,20.0,ID,1585610041.0,100.0,-8.65,115.22,78.8,3.36
306,taoudenni,58.0,ML,1585610326.0,17.0,22.68,-3.98,74.71,6.93
307,ambulu,64.0,ID,1585610326.0,76.0,-8.35,113.61,80.73,2.44
308,cordoba,75.0,AR,1585610117.0,69.0,-31.41,-64.18,77.0,6.93
309,leh,71.0,IN,1585610326.0,30.0,34.17,77.58,16.12,5.17
310,yaan,91.0,NG,1585610326.0,68.0,7.38,8.57,82.96,11.59
311,ankara,75.0,TR,1585610226.0,87.0,39.92,32.85,45.0,1.12
312,tiksi,9.0,RU,1585610326.0,86.0,71.69,128.87,-9.45,3.67
313,freeport,75.0,US,1585610327.0,66.0,40.66,-73.58,50.0,5.82
314,usinsk,6.0,RU,1585610327.0,95.0,65.99,57.53,9.48,11.7
315,tessalit,94.0,ML,1585610327.0,14.0,20.2,1.01,74.55,7.36
316,marawi,96.0,PH,1585610302.0,67.0,8.0,124.29,75.6,2.24
317,iqaluit,20.0,CA,1585610327.0,59.0,63.75,-68.51,3.2,13.87
318,kampong thum,27.0,KH,1585610327.0,73.0,12.71,104.89,79.74,6.82
319,snezhnogorsk,56.0,RU,1585610327.0,85.0,69.19,33.25,12.2,2.24
320,dzhebariki-khaya,100.0,RU,1585610327.0,95.0,62.22,135.8,20.93,6.08
321,bay roberts,90.0,CA,1585610327.0,100.0,47.6,-53.26,32.0,19.46
322,aykhal,75.0,RU,1585610328.0,85.0,66.0,111.5,10.4,4.47
323,shingu,75.0,JP,1585610328.0,87.0,33.73,135.98,55.4,3.36
324,asfi,50.0,MA,1585610328.0,80.0,32.3,-9.24,62.71,23.67
325,ranfurly,29.0,NZ,1585610328.0,82.0,-45.13,170.1,57.0,1.99
326,jiuquan,88.0,CN,1585610328.0,36.0,39.74,98.52,34.92,3.91
327,tura,0.0,IN,1585610328.0,26.0,25.52,90.22,64.96,3.65
328,rio bueno,11.0,CL,1585610328.0,54.0,-40.32,-72.97,59.0,8.05
329,registro,8.0,BR,1585610329.0,96.0,-24.49,-47.84,70.32,0.85
330,alihe,13.0,CN,1585610329.0,61.0,50.57,123.72,33.28,9.1
331,safranbolu,45.0,TR,1585610329.0,53.0,41.25,32.69,43.93,2.84
332,japura,100.0,ID,1585610329.0,95.0,-0.32,102.35,75.67,0.31
333,zonguldak,78.0,TR,1585610329.0,67.0,41.25,31.83,44.91,3.13
334,muros,20.0,ES,1585610329.0,67.0,42.78,-9.06,46.99,13.87
335,biak,75.0,ID,1585610329.0,70.0,-0.91,122.88,81.84,2.62
336,merauke,62.0,ID,1585610329.0,77.0,-8.47,140.33,83.86,3.15
337,gizo,86.0,SB,1585610329.0,71.0,-8.1,156.84,85.66,5.91
338,krasnoye,9.0,UA,1585610330.0,67.0,49.91,24.61,23.0,6.96
339,opelousas,1.0,US,1585610330.0,57.0,30.53,-92.08,80.6,8.05
340,minden,40.0,DE,1585610330.0,93.0,52.28,8.92,36.0,2.24
341,kalmunai,14.0,LK,1585610330.0,75.0,7.42,81.82,78.57,1.9
342,bitung,40.0,ID,1585610330.0,94.0,1.45,125.18,77.0,1.12
343,am timan,94.0,TD,1585610330.0,14.0,11.03,20.28,79.45,4.38
344,khasan,100.0,RU,1585610330.0,75.0,42.43,130.64,43.97,0.36
345,polson,90.0,US,1585610330.0,75.0,47.69,-114.16,44.6,20.8
346,khandyga,100.0,RU,1585610330.0,95.0,62.67,135.6,19.22,4.52
347,ambodifototra,,,,,,,,
348,asosa,59.0,ET,1585610331.0,12.0,10.07,34.53,70.43,4.85
349,praia,20.0,CV,1585610229.0,78.0,14.92,-23.51,73.4,12.75
350,keti bandar,94.0,PK,1585610331.0,69.0,24.14,67.45,74.46,13.53
351,comodoro rivadavia,0.0,AR,1585610249.0,51.0,-45.87,-67.5,60.8,8.05
352,rancharia,21.0,BR,1585610331.0,69.0,-22.23,-50.89,77.0,2.55
353,tayturka,51.0,RU,1585610331.0,80.0,52.87,103.46,27.46,3.29
354,mys shmidta,,,,,,,,
355,rocha,84.0,UY,1585610332.0,87.0,-34.48,-54.33,68.68,9.31
356,beaumont,40.0,US,1585610332.0,74.0,30.09,-94.1,78.8,11.41
357,barentsburg,,,,,,,,
358,fare,53.0,PF,1585610293.0,78.0,-16.7,-151.02,83.86,14.12
359,kholtoson,0.0,RU,1585610332.0,73.0,50.3,103.31,17.35,2.46
360,tumannyy,,,,,,,,
361,axim,61.0,GH,1585610101.0,89.0,4.87,-2.24,80.26,8.08
362,majene,50.0,ID,1585610333.0,73.0,-3.54,118.97,82.62,2.89
363,ust-nera,100.0,RU,1585610333.0,80.0,64.57,143.2,2.3,6.24
364,pisco,40.0,PE,1585610333.0,30.0,-13.7,-76.22,71.6,13.87
365,hofn,12.0,IS,1585610235.0,68.0,64.25,-15.21,40.89,13.44
366,lakatoro,75.0,VU,1585610333.0,88.0,-16.1,167.42,80.6,1.12
367,cabedelo,20.0,BR,1585610333.0,94.0,-6.98,-34.83,78.8,4.7
368,isangel,98.0,VU,1585610334.0,81.0,-19.55,169.27,78.69,23.47
369,vestmanna,95.0,FO,1585610334.0,81.0,62.16,-7.17,42.8,23.04
370,nipawin,1.0,CA,1585610334.0,87.0,53.37,-104.0,32.0,9.17
371,santa ana,20.0,US,1585610334.0,46.0,33.75,-117.87,77.0,9.17
372,plettenberg bay,0.0,ZA,1585610334.0,76.0,-34.05,23.37,61.05,4.61
373,noumea,38.0,NC,1585610278.0,54.0,-22.28,166.46,82.4,17.22
374,abu kamal,12.0,SY,1585610334.0,58.0,34.45,40.92,58.3,7.87
375,caceres,100.0,ES,1585610334.0,85.0,39.52,-6.37,41.0,13.0
376,tabiauea,,,,,,,,
377,phetchaburi,23.0,TH,1585610335.0,49.0,12.97,99.58,75.92,3.44
378,touros,75.0,BR,1585610275.0,83.0,-5.2,-35.46,78.8,3.36
379,balaquid,,,,,,,,
380,margate,40.0,GB,1585610175.0,93.0,51.38,1.39,45.0,8.05
381,katobu,100.0,ID,1585610289.0,85.0,-4.94,122.53,79.16,0.43
